[
	{
		"key": "2009",
		"latitude": -23.417321,
		"longitude": -51.939245,
		"name": "SICOOB CENTRAL UNICOOB"
	},
	{
		"key": "2016",
		"latitude": -22.904998,
		"longitude": -43.176870,
		"name": "SICOOB CENTRAL RIO"
	},
	{
		"key": "4374",
		"latitude": -23.550455,
		"longitude": -51.457685,
		"name": "SICOOB ALIANÇA"
	},
	{
		"key": "4169",
		"latitude": -1.454609,
		"longitude": -48.502008,
		"name": "SICOOB COOESA"
	},
	{
		"key": "4170",
		"latitude": -1.455793,
		"longitude": -48.500727,
		"name": "SICOOB COIMPPA"
	},
	{
		"key": "4370",
		"latitude": -24.951684,
		"longitude": -53.477795,
		"name": "SICOOB CREDICAPITAL"
	},
	{
		"key": "4370-26",
		"latitude": -30.057455,
		"longitude": -51.222779,
		"name": "SICOOB CREDICAPITAL"
	},
	{
		"key": "4393",
		"latitude": -23.412097,
		"longitude": -51.433788,
		"name": "SICOOB HORIZONTE"
	},
	{
		"key": "4393-07",
		"latitude": -18.999982,
		"longitude": -57.650901,
		"name": "SICOOB HORIZONTE"
	},
	{
		"key": "4393-08",
		"latitude": -22.546029,
		"longitude": -55.724360,
		"name": "SICOOB HORIZONTE"
	},
	{
		"key": "4390",
		"latitude": -26.222434,
		"longitude": -52.672608,
		"name": "SICOOB INTEGRADO"
	},
	{
		"key": "4390-53",
		"latitude": -23.284230,
		"longitude": -46.874713,
		"name": "SICOOB INTEGRADO"
	},
	{
		"key": "4385",
		"latitude": -24.565325,
		"longitude": -54.063774,
		"name": "SICOOB MARECHAL"
	},
	{
		"key": "4396",
		"latitude": -24.406980,
		"longitude": -53.514267,
		"name": "SICOOB MEDIO OESTE"
	},
	{
		"key": "4351",
		"latitude": -24.724120,
		"longitude": -53.723072,
		"name": "SICOOB UNICOOB MERIDIONAL"
	},
	{
		"key": "4340",
		"latitude": -23.418239,
		"longitude": -51.926917,
		"name": "SICOOB METROPOLITANO"
	},
	{
		"key": "4361",
		"latitude": -23.084489,
		"longitude": -52.462751,
		"name": "SICOOB OURO BRANCO"
	},
	{
		"key": "4355",
		"latitude": -23.311374,
		"longitude": -51.157937,
		"name": "SICOOB OURO VERDE"
	},
	{
		"key": "4355-32",
		"latitude": -0.843083,
		"longitude": -52.517157,
		"name": "SICOOB OURO VERDE"
	},
	{
		"key": "4368",
		"latitude": -25.439264,
		"longitude": -49.279838,
		"name": "SICOOB SUL"
	},
	{
		"key": "4368-21",
		"latitude": -27.591231,
		"longitude": -48.550785,
		"name": "SICOOB SUL"
	},
	{
		"key": "4609",
		"latitude": -3.835527,
		"longitude": -50.637239,
		"name": "SICOOB TRANSAMAZÔNICA"
	},
	{
		"key": "4343",
		"latitude": -25.540206,
		"longitude": -54.580307,
		"name": "SICOOB TRÊS FRONTEIRAS"
	},
	{
		"key": "4197",
		"latitude": -1.425874,
		"longitude": -48.451381,
		"name": "SICOOB UNIDAS"
	},
	{
		"key": "4342",
		"latitude": -26.082476,
		"longitude": -53.048096,
		"name": "SICOOB VALE SUL"
	},
	{
		"key": "2013",
		"latitude": -23.572169,
		"longitude": -46.642416,
		"name": "UNIMAIS"
	},
	{
		"key": "2013-00",
		"latitude": -23.572169,
		"longitude": -46.642416,
		"name": "UNIMAIS"
	},
	{
		"key": "4169-0",
		"latitude": -14.54536,
		"longitude": -48.501879,
		"name": "4169 SICOOB COOESA"
	  },
	  {
		"key": "4169-1",
		"latitude": -24.54951,
		"longitude": -54.711952,
		"name": "4169 SICOOB COOESA"
	  },
	  {
		"key": "4169-2",
		"latitude": -14.53861,
		"longitude": -48.486,
		"name": "4169 SICOOB COOESA"
	  },
	  {
		"key": "4169-3",
		"latitude": -12.93189,
		"longitude": -47.931829,
		"name": "4169 SICOOB COOESA"
	  },
	  {
		"key": "4169-99",
		"latitude": -14.54536,
		"longitude": -48.501879,
		"name": "4169 SICOOB COOESA"
	  },
	  {
		"key": "4170-0",
		"latitude": -14.48753,
		"longitude": -48.487865,
		"name": "4170 SICOOB COIMPPA"
	  },
	  {
		"key": "4170-2",
		"latitude": -14.48755,
		"longitude": -48.487867,
		"name": "4170 SICOOB COIMPPA"
	  },
	  {
		"key": "4197-0",
		"latitude": -14.48755,
		"longitude": -48.487867,
		"name": "4197 SICOOB UNIDAS"
	  },
	  {
		"key": "4197-1",
		"latitude": -14.47202,
		"longitude": -48.465651,
		"name": "4197 SICOOB UNIDAS"
	  },
	  {
		"key": "4197-2",
		"latitude": -13.4485,
		"longitude": -48.395965,
		"name": "4197 SICOOB UNIDAS"
	  },
	  {
		"key": "4197-3",
		"latitude": -17.24881,
		"longitude": -48.87587,
		"name": "4197 SICOOB UNIDAS"
	  },
	  {
		"key": "4197-4",
		"latitude": -15.06081,
		"longitude": -48.637292,
		"name": "4197 SICOOB UNIDAS"
	  },
	  {
		"key": "4197-5",
		"latitude": -13.85886,
		"longitude": -48.318981,
		"name": "4197 SICOOB UNIDAS"
	  },
	  {
		"key": "4197-6",
		"latitude": -13.04585,
		"longitude": -48.15937,
		"name": "4197 SICOOB UNIDAS"
	  },
	  {
		"key": "4197-7",
		"latitude": -14.48755,
		"longitude": -48.487867,
		"name": "4197 SICOOB UNIDAS"
	  },
	  {
		"key": "4197-8",
		"latitude": -11.93195,
		"longitude": -47.182737,
		"name": "4197 SICOOB UNIDAS"
	  },
	  {
		"key": "4197-9",
		"latitude": -14.47202,
		"longitude": -48.465651,
		"name": "4197 SICOOB UNIDAS"
	  },
	  {
		"key": "4197-99",
		"latitude": -14.48755,
		"longitude": -48.487867,
		"name": "4197 SICOOB UNIDAS"
	  }
]
